{
"type": "FeatureCollection",
"crs": { "type": "name", "properties": { "name": "urn:ogc:def:crs:OGC:1.3:CRS84" } },
"features": [
{ "type": "Feature", "properties": { "name": "Alajuela", "province": "Alajuela", "canton": "Alajuela", "district": "Alajuela", "postal_code": 20101, "address": "en Plaza Ferias. De la bomba Santa Anita, 200 m al oeste. Del PriceSmart de Alajuela, 250 m al este. Por Ekono" }, "geometry": { "type": "Point", "coordinates": [ -84.219056857106807, 10.013534238570999 ] } },
{ "type": "Feature", "properties": { "name": "Alajuelita", "province": "San José", "canton": "Alajuelita", "district": "Alajuelita", "postal_code": 11001, "address": "al costado norte de la iglesia católica de Alajuelita " }, "geometry": { "type": "Point", "coordinates": [ -84.099503553155301, 9.903335887895309 ] } },
{ "type": "Feature", "properties": { "name": "Aranjuez", "province": "San José", "canton": "San José", "district": "Carmen", "postal_code": 10101, "address": "en el Polideportivo de Aranjuez, frente a la oficina administrativa de la Casa Cantonal de la Juventud " }, "geometry": { "type": "Point", "coordinates": [ -84.068136496947801, 9.940055316069721 ] } },
{ "type": "Feature", "properties": { "name": "Aserrí", "province": "San José", "canton": "Aserrí", "district": "Aserrí", "postal_code": 10601, "address": "en el Polideportivo de Aserrí" }, "geometry": { "type": "Point", "coordinates": [ -84.091168364487402, 9.85779629768018 ] } },
{ "type": "Feature", "properties": { "name": "Atenas", "province": "Alajuela", "canton": "Atenas", "district": "Atenas", "postal_code": 20501, "address": "en la radial de Atenas. De los Tribunales de Justicia, 1 km al este " }, "geometry": { "type": "Point", "coordinates": [ -84.368817756294902, 9.97644023385185 ] } },
{ "type": "Feature", "properties": { "name": "Aurora de Alajuelita", "province": "San José", "canton": "Alajuelita", "district": "San Felipe", "postal_code": 11005, "address": "en la calle principal frente a la urbanización Garabito " }, "geometry": { "type": "Point", "coordinates": [ -84.120133239286801, 9.92074813079466 ] } },
{ "type": "Feature", "properties": { "name": "Barranca", "province": "Puntarenas", "canton": "Puntarenas", "district": "Barranca", "postal_code": 60108, "address": "en las instalaciones del Consejo Nacional de Producción (CNP). Diagonal a Licorera Pipos" }, "geometry": { "type": "Point", "coordinates": [ -84.718868235228996, 9.985432584502931 ] } },
{ "type": "Feature", "properties": { "name": "Barrio San Martín de Coronado", "province": "San José", "canton": "Vázquez de Coronado", "district": "San Isidro", "postal_code": 11101, "address": "barrio San Martín: de la clínica de Coronado, 150 m al norte " }, "geometry": { "type": "Point", "coordinates": [ -84.013967732847107, 9.973745301429471 ] } },
{ "type": "Feature", "properties": { "name": "Barva", "province": "Heredia", "canton": "Barva", "district": "Barva", "postal_code": 40201, "address": "contiguo a la plaza de deportes de San Bartolomé " }, "geometry": { "type": "Point", "coordinates": [ -84.128524001881203, 10.018801953742599 ] } },
{ "type": "Feature", "properties": { "name": "Bijagua", "province": "Alajuela", "canton": "Upala", "district": "Bijagua", "postal_code": 21304, "address": "del Banco Nacional, 100 m al norte frente a la farmacia Margarita " }, "geometry": { "type": "Point", "coordinates": [ -85.056791055682993, 10.7302359346925 ] } },
{ "type": "Feature", "properties": { "name": "Buenos Aires", "province": "Puntarenas", "canton": "Buenos Aires", "district": "Buenos Aires", "postal_code": 60301, "address": "frente a la escuela de Buenos Aires " }, "geometry": { "type": "Point", "coordinates": [ -83.3317039646372, 9.174553096136149 ] } },
{ "type": "Feature", "properties": { "name": "Cañas", "province": "Guanacaste", "canton": "Cañas", "district": "Cañas", "postal_code": 50601, "address": null }, "geometry": { "type": "Point", "coordinates": [ -85.0932470490757, 10.4308518095706 ] } },
{ "type": "Feature", "properties": { "name": "Ciudad Colón", "province": "San José", "canton": "Mora", "district": "Colón", "postal_code": 10701, "address": "en el antiguo mercado de Ciudad Colón. Sobre el Bulevar Alcides Jiménez Rojas" }, "geometry": { "type": "Point", "coordinates": [ -84.241421806797604, 9.914903466100879 ] } },
{ "type": "Feature", "properties": { "name": "Ciudad Neily", "province": "Puntarenas", "canton": "Corredores", "district": "Corredor", "postal_code": 61001, "address": "frente al mercado de Ciudad Neily" }, "geometry": { "type": "Point", "coordinates": [ -82.941229436596799, 8.64874177630325 ] } },
{ "type": "Feature", "properties": { "name": "Ciudad Quesada", "province": "Alajuela", "canton": "San Carlos", "district": "Quesada", "postal_code": 21001, "address": "de la plaza San Carlos, 200 m al oeste " }, "geometry": { "type": "Point", "coordinates": [ -84.436254798558593, 10.3318745225115 ] } },
{ "type": "Feature", "properties": { "name": "Cóbano", "province": "Puntarenas", "canton": "Puntarenas", "district": "Cóbano", "postal_code": 60111, "address": "en el parqueo de la Municipalidad de Cóbano" }, "geometry": { "type": "Point", "coordinates": [ -85.106558975351902, 9.68822530252069 ] } },
{ "type": "Feature", "properties": { "name": "Coronado", "province": "San José", "canton": "Vázquez de Coronado", "district": "San Isidro", "postal_code": 11101, "address": "de Correos de Costa Rica, 50 m al oeste " }, "geometry": { "type": "Point", "coordinates": [ -84.007917972921305, 9.97848345687974 ] } },
{ "type": "Feature", "properties": { "name": "Cuatro Reinas de Tibás", "province": "San José", "canton": "Tibás", "district": "Leon XIII", "postal_code": 11304, "address": "detrás de la antigua Cruz Roja de Cuatro Reinas" }, "geometry": { "type": "Point", "coordinates": [ -84.0, 9.9 ] } },
{ "type": "Feature", "properties": { "name": "Curridabat", "province": "San José", "canton": "Curridabat", "district": "Curridabat", "postal_code": 11801, "address": "al costado sureste del estadio" }, "geometry": { "type": "Point", "coordinates": [ -84.043562656683505, 9.91394119712975 ] } },
{ "type": "Feature", "properties": { "name": "Desamparados", "province": "San José", "canton": "Desamparados", "district": "Desamparados", "postal_code": 10301, "address": "en la Villa Olímpica de Dos Cercas  " }, "geometry": { "type": "Point", "coordinates": [ -84.050926410038898, 9.888640483927549 ] } },
{ "type": "Feature", "properties": { "name": "El Molino", "province": "Cartago", "canton": "Cartago", "district": "Occidental", "postal_code": 30102, "address": "de la iglesia María Auxiliadora de Cartago, 200 m al sur" }, "geometry": { "type": "Point", "coordinates": [ -83.927272291049107, 9.86459462707843 ] } },
{ "type": "Feature", "properties": { "name": "Escazú", "province": "San José", "canton": "Escazú", "district": "Escazú", "postal_code": 10201, "address": "al costado sur de la Iglesia católica San Miguel Arcángel " }, "geometry": { "type": "Point", "coordinates": [ -84.139958299959105, 9.91948050267515 ] } },
{ "type": "Feature", "properties": { "name": "Esparza", "province": "Puntarenas", "canton": "Esparza", "district": "Espíritu Santo", "postal_code": 60201, "address": "barrio Las Tres Marías: frente a antigua delegación de policía " }, "geometry": { "type": "Point", "coordinates": [ -84.656106839218396, 9.9992585512615 ] } },
{ "type": "Feature", "properties": { "name": "Filadelfia", "province": "Guanacaste", "canton": "Carrillo", "district": "Filadelfia", "postal_code": 50501, "address": "frente a la Cruz Roja. Al costado sur de Gollo " }, "geometry": { "type": "Point", "coordinates": [ -85.551939715050096, 10.445599278263799 ] } },
{ "type": "Feature", "properties": { "name": "Grecia", "province": "Alajuela", "canton": "Grecia", "district": "Grecia", "postal_code": 20301, "address": "del Banco Nacional, 100 m al oeste y 500 m al norte" }, "geometry": { "type": "Point", "coordinates": [ -84.306651475199999, 10.0803283795137 ] } },
{ "type": "Feature", "properties": { "name": "Guachipelín de Escazú", "province": "San José", "canton": "Escazú", "district": "San Rafael", "postal_code": 10203, "address": "en el gimnasio de la escuela de Guachipelín" }, "geometry": { "type": "Point", "coordinates": [ -84.159306903594697, 9.944241673455821 ] } },
{ "type": "Feature", "properties": { "name": "Guadalupe", "province": "San José", "canton": "Goicoechea", "district": "Guadalupe", "postal_code": 10801, "address": "barrio Moreno Cañas: Frente al Instituto de Enseñanza General Básica América Central (Escuela América Central) " }, "geometry": { "type": "Point", "coordinates": [ -84.055800218630196, 9.948019429194471 ] } },
{ "type": "Feature", "properties": { "name": "Guápiles", "province": "Limón", "canton": "Pococí", "district": "Guápiles", "postal_code": 70201, "address": "al costado norte de MUCAP" }, "geometry": { "type": "Point", "coordinates": [ -83.790128859102893, 10.2153343864319 ] } },
{ "type": "Feature", "properties": { "name": "Hatillo", "province": "San José", "canton": "San José", "district": "Hatillo", "postal_code": 10110, "address": "frente al Ebais de Hatillo 2 y 3" }, "geometry": { "type": "Point", "coordinates": [ -84.103343242282705, 9.91890478210958 ] } },
{ "type": "Feature", "properties": { "name": "Heredia", "province": "Heredia", "canton": "Heredia", "district": "Mercedes", "postal_code": 40102, "address": "barrio Mercedes Norte: en el campo ferial La Perla" }, "geometry": { "type": "Point", "coordinates": [ -84.1256062268032, 10.0061858815201 ] } },
{ "type": "Feature", "properties": { "name": "Jacó", "province": "Puntarenas", "canton": "Garabito", "district": "Jacó", "postal_code": 61101, "address": "al costado oeste de la clínica de Jacó centro " }, "geometry": { "type": "Point", "coordinates": [ -84.623074701604494, 9.60845064366271 ] } },
{ "type": "Feature", "properties": { "name": "Jicaral", "province": "Puntarenas", "canton": "Puntarenas", "district": "Lepanto", "postal_code": 60104, "address": "en la plazoleta del parque de Jicaral" }, "geometry": { "type": "Point", "coordinates": [ -85.113803722924501, 9.961000535897719 ] } },
{ "type": "Feature", "properties": { "name": "La Capri de San Miguel", "province": "San José", "canton": "Desamparados", "district": "San Miguel", "postal_code": 10302, "address": "al costado oeste de la plaza de deportes La Capri" }, "geometry": { "type": "Point", "coordinates": [ -84.060973406393302, 9.86591137717061 ] } },
{ "type": "Feature", "properties": { "name": "La Fortuna", "province": "Alajuela", "canton": "San Carlos", "district": "La Fortuna", "postal_code": 21007, "address": "en el salón comunal de La Fortuna" }, "geometry": { "type": "Point", "coordinates": [ -84.645583933729498, 10.469551294762301 ] } },
{ "type": "Feature", "properties": { "name": "Liberia", "province": "Guanacaste", "canton": "Liberia", "district": "Liberia", "postal_code": 50101, "address": "en el campo ferial de Liberia" }, "geometry": { "type": "Point", "coordinates": [ -85.445851978209205, 10.6341339487666 ] } },
{ "type": "Feature", "properties": { "name": "Limón", "province": "Limón", "canton": "Limón", "district": "Limón", "postal_code": 70101, "address": "frente al cementerio del barrio San Juan " }, "geometry": { "type": "Point", "coordinates": [ -83.041019432851499, 9.98675420559424 ] } },
{ "type": "Feature", "properties": { "name": "Llanos de Santa Lucía de Paraíso", "province": "Cartago", "canton": "Paraíso", "district": "Llanos de Santa Lucía", "postal_code": 30205, "address": "al costado oeste de la iglesia de Santa Lucía" }, "geometry": { "type": "Point", "coordinates": [ -83.881225950345197, 9.838021746196979 ] } },
{ "type": "Feature", "properties": { "name": "Lomas del Río de Pavas", "province": "San José", "canton": "San José", "district": "Pavas", "postal_code": 10109, "address": "al costado sur de la escuela de Lomas" }, "geometry": { "type": "Point", "coordinates": [ -84.162380291508498, 9.959276393522609 ] } },
{ "type": "Feature", "properties": { "name": "Lotos de Desamparados", "province": "San José", "canton": "Desamparados", "district": "Desamparados", "postal_code": 10301, "address": "en la cancha multiusos " }, "geometry": { "type": "Point", "coordinates": [ -84.073748847976901, 9.905240843332511 ] } },
{ "type": "Feature", "properties": { "name": "Mata de Plátano", "province": "San José", "canton": "Goicoechea", "district": "Mata de Plátano", "postal_code": 10804, "address": "de la iglesia Nuestra Señora del Carmen, 100 m al oeste " }, "geometry": { "type": "Point", "coordinates": [ -84.017630323995405, 9.952876847642811 ] } },
{ "type": "Feature", "properties": { "name": "Miramar", "province": "Puntarenas", "canton": "Montes de Oro", "district": "Miramar", "postal_code": 60401, "address": "en el parqueo del mercado municipal" }, "geometry": { "type": "Point", "coordinates": [ -84.729781209970099, 10.0908515333906 ] } },
{ "type": "Feature", "properties": { "name": "Monte Claro de Desamparados", "province": "San José", "canton": "Desamparados", "district": "Desamparados", "postal_code": 10301, "address": "al costado sur de la plaza de deportes" }, "geometry": { "type": "Point", "coordinates": [ -84.0712653767403, 9.89565485446845 ] } },
{ "type": "Feature", "properties": { "name": "Monteverde", "province": "Puntarenas", "canton": "Puntarenas", "district": "Monteverde", "postal_code": 61201, "address": "en el salón multiuso del mall de Monteverde " }, "geometry": { "type": "Point", "coordinates": [ -84.821977150354101, 10.3152978598481 ] } },
{ "type": "Feature", "properties": { "name": "Naranjo", "province": "Alajuela", "canton": "Naranjo", "district": "Naranjo", "postal_code": 20601, "address": "del colegio de Naranjo, 100 m al sureste " }, "geometry": { "type": "Point", "coordinates": [ -84.382497425966704, 10.1029908297978 ] } },
{ "type": "Feature", "properties": { "name": "Nicoya", "province": "Guanacaste", "canton": "Nicoya", "district": "Nicoya", "postal_code": 50201, "address": "frente a mercado municipal de Nicoya" }, "geometry": { "type": "Point", "coordinates": [ -85.451017935385806, 10.1412889815652 ] } },
{ "type": "Feature", "properties": { "name": "Oreamuno", "province": "Cartago", "canton": "Oreamuno", "district": "San Rafael", "postal_code": 30701, "address": "de la iglesia San Rafael Arcángel, 500 m al norte " }, "geometry": { "type": "Point", "coordinates": [ -83.903215326216994, 9.873686695235261 ] } },
{ "type": "Feature", "properties": { "name": "Orotina", "province": "Alajuela", "canton": "Orotina", "district": "Orotina", "postal_code": 20901, "address": "al frente de las instalaciones del Ministerio de Agricultura y Ganadería (MAG) " }, "geometry": { "type": "Point", "coordinates": [ -84.525318230999403, 9.91352379714826 ] } },
{ "type": "Feature", "properties": { "name": "Palmares", "province": "Alajuela", "canton": "Palmares", "district": "Palmares", "postal_code": 20701, "address": "de la esquina del estadio Palmareño Solís, 250 m al suroeste " }, "geometry": { "type": "Point", "coordinates": [ -84.427936038933595, 10.055709061134699 ] } },
{ "type": "Feature", "properties": { "name": "Paraíso", "province": "Cartago", "canton": "Paraíso", "district": "Paraíso", "postal_code": 30201, "address": "al costado sur de la iglesia Nuestra Señora de la Limpia Concepción del Rescate de Ujarrás " }, "geometry": { "type": "Point", "coordinates": [ -83.8653006917977, 9.838207780593059 ] } },
{ "type": "Feature", "properties": { "name": "Pavas", "province": "San José", "canton": "San José", "district": "Pavas", "postal_code": 10109, "address": "frente a la escuela Carlos Sanabria " }, "geometry": { "type": "Point", "coordinates": [ -84.1310283276256, 9.942779544077791 ] } },
{ "type": "Feature", "properties": { "name": "Pérez Zeledón", "province": "San José", "canton": "Perez Zeledón", "district": "San Isidro de El General", "postal_code": 11901, "address": "frente a la Casa de la Juventud de San Isidro de Pérez Zeledón " }, "geometry": { "type": "Point", "coordinates": [ -83.698747163702194, 9.37188191050817 ] } },
{ "type": "Feature", "properties": { "name": "Plaza González Víquez", "province": "San José", "canton": "San José", "district": "Catedral", "postal_code": 10104, "address": "en la plaza González Víquez, al lado de las oficinas centrales del Ministerio de Obras Públicas y Transportes (MOPT) " }, "geometry": { "type": "Point", "coordinates": [ -84.075486383510096, 9.923950130194131 ] } },
{ "type": "Feature", "properties": { "name": "Poás de Alajuela", "province": "Alajuela", "canton": "Poás", "district": "San Pedro", "postal_code": 20801, "address": "al costado oeste del parque " }, "geometry": { "type": "Point", "coordinates": [ -84.245672462465194, 10.0761816335775 ] } },
{ "type": "Feature", "properties": { "name": "Puerto Viejo de Sarapiquí", "province": "Heredia", "canton": "Sarapiquí", "district": "Puerto Viejo", "postal_code": 41001, "address": "al costado este de la iglesia San Agustín " }, "geometry": { "type": "Point", "coordinates": [ -84.007546089806894, 10.4545290836818 ] } },
{ "type": "Feature", "properties": { "name": "Puerto Viejo de Talamanca", "province": "Limón", "canton": "Talamanca", "district": "Bratsi", "postal_code": 70401, "address": "detrás de la Casa de la Cultura" }, "geometry": { "type": "Point", "coordinates": [ -82.754338253373007, 9.65697398096369 ] } },
{ "type": "Feature", "properties": { "name": "Puriscal", "province": "San José", "canton": "Puriscal", "district": "Santiago", "postal_code": 10401, "address": "en la parte trasera del gimnasio del Liceo de Puriscal " }, "geometry": { "type": "Point", "coordinates": [ -84.312374788253706, 9.848276422831759 ] } },
{ "type": "Feature", "properties": { "name": "Quepos", "province": "Puntarenas", "canton": "Quepos", "district": "Quepos", "postal_code": 60601, "address": "al costado este del Malecón. Al costado sur del Parque Central de Quepos " }, "geometry": { "type": "Point", "coordinates": [ -84.165384809684298, 9.42964258639517 ] } },
{ "type": "Feature", "properties": { "name": "San Antonio de Belén", "province": "Heredia", "canton": "Belén", "district": "San Antonio", "postal_code": 40701, "address": "al costado oeste de la cancha de deportes de Belén " }, "geometry": { "type": "Point", "coordinates": [ -84.178689460429595, 9.98036492305001 ] } },
{ "type": "Feature", "properties": { "name": "San Isidro", "province": "Heredia", "canton": "San Isidro", "district": "San Isidro", "postal_code": 40601, "address": "al costado este de la plaza de deportes " }, "geometry": { "type": "Point", "coordinates": [ -84.055844170664997, 10.016956034039801 ] } },
{ "type": "Feature", "properties": { "name": "San Joaquín de Flores", "province": "Heredia", "canton": "Flores", "district": "San Joaquín", "postal_code": 40801, "address": "al costado este de la iglesia de San Joaquín " }, "geometry": { "type": "Point", "coordinates": [ -84.150995854245707, 10.0033186196777 ] } },
{ "type": "Feature", "properties": { "name": "San Juan de Dios", "province": "San José", "canton": "Desamparados", "district": "San Juan de Dios", "postal_code": 10303, "address": "frente al Ebais " }, "geometry": { "type": "Point", "coordinates": [ -84.085191436343393, 9.87784041459847 ] } },
{ "type": "Feature", "properties": { "name": "San Luis de Santo Domingo", "province": "Heredia", "canton": "Santo Domingo", "district": "San Luis", "postal_code": 40308, "address": "al costado norte de la iglesia de San Luis. Al costado este de la plaza de deportes  " }, "geometry": { "type": "Point", "coordinates": [ -84.029142990424305, 10.0082381914384 ] } },
{ "type": "Feature", "properties": { "name": "San Mateo", "province": "Alajuela", "canton": "San Mateo", "district": "San Mateo", "postal_code": 20401, "address": "en el salón multiuso de San Mateo " }, "geometry": { "type": "Point", "coordinates": [ -84.523662435229198, 9.93868479222825 ] } },
{ "type": "Feature", "properties": { "name": "San Pablo de Heredia", "province": "Heredia", "canton": "San Pablo", "district": "San Pablo", "postal_code": 40901, "address": "de la Municipalidad de San Pablo, 50 m al este y 100 m al norte. Frente al Liceo Mario Vindas Salazar " }, "geometry": { "type": "Point", "coordinates": [ -84.095397493259597, 9.997106579584219 ] } },
{ "type": "Feature", "properties": { "name": "San Pablo de Turrubares", "province": "San José", "canton": "Turrubares", "district": "San Pablo", "postal_code": 11601, "address": "de la delegación policial, 100 m al sur y 200 m al oeste. Al costado oeste del Parque Central de San Pablo" }, "geometry": { "type": "Point", "coordinates": [ -84.442387654098297, 9.90808161468253 ] } },
{ "type": "Feature", "properties": { "name": "San Pedro de Montes de Oca", "province": "San José", "canton": "Montes de Oca", "district": "San Pedro", "postal_code": 11501, "address": "al costado norte del parque Kennedy, contiguo a la Municipalidad de Montes de Oca" }, "geometry": { "type": "Point", "coordinates": [ -84.052902893208099, 9.932949657268489 ] } },
{ "type": "Feature", "properties": { "name": "San Rafael Abajo", "province": "San José", "canton": "Desamparados", "district": "San Rafael Abajo", "postal_code": 10311, "address": "al costado sur de la cancha de deportes de la Valencia. Al costado oeste de la Unidad Pedagógica de Valencia" }, "geometry": { "type": "Point", "coordinates": [ -84.083846219803803, 9.89857857699921 ] } },
{ "type": "Feature", "properties": { "name": "San Rafael Arriba", "province": "San José", "canton": "Desamparados", "district": "San Rafael Arriba", "postal_code": 10304, "address": "al costado este de la iglesia de San Rafael Arcángel" }, "geometry": { "type": "Point", "coordinates": [ -84.073801726579006, 9.874505239054081 ] } },
{ "type": "Feature", "properties": { "name": "San Rafael de Alajuela", "province": "Alajuela", "canton": "Alajuela", "district": "San Rafael", "postal_code": 20108, "address": "al costado oeste de la iglesia de San Rafael Arcángel. Al costado sur de la plaza de deportes " }, "geometry": { "type": "Point", "coordinates": [ -84.213828657912998, 9.97275176072241 ] } },
{ "type": "Feature", "properties": { "name": "San Rafael de Heredia", "province": "Heredia", "canton": "San Rafael", "district": "San Rafael", "postal_code": 40501, "address": "al lado del Ebais, el Domo de San Rafael. Diagonal al parqueo municipal " }, "geometry": { "type": "Point", "coordinates": [ -84.101574906392898, 10.011259533369 ] } },
{ "type": "Feature", "properties": { "name": "San Rafael de Montes de Oca", "province": "San José", "canton": "Montes de Oca", "district": "San Rafael", "postal_code": 11504, "address": "150 m al este del Ebais de San Rafael. Diagonal a la Ciudad Hogar Calasanz " }, "geometry": { "type": "Point", "coordinates": [ -84.018569058545296, 9.94337945738795 ] } },
{ "type": "Feature", "properties": { "name": "San Ramón", "province": "Alajuela", "canton": "San Ramón", "district": "San Ramón", "postal_code": 20201, "address": "de la Sede Occidente de la Universidad de Costa Rica, 150 m al norte " }, "geometry": { "type": "Point", "coordinates": [ -84.476198437343697, 10.0875765934024 ] } },
{ "type": "Feature", "properties": { "name": "San Sebastián", "province": "San José", "canton": "San José", "district": "San Sebastián", "postal_code": 10111, "address": "barrio Kennedy: al costado sur del parque" }, "geometry": { "type": "Point", "coordinates": [ -84.082181797352305, 9.910748305599601 ] } },
{ "type": "Feature", "properties": { "name": "Santa Ana", "province": "San José", "canton": "Santa Ana", "district": "Santa Ana", "postal_code": 10901, "address": "contiguo a la Municipalidad de Santa Ana. En la esquina noreste del Parque Recreativo y Deportivo de Santa Ana " }, "geometry": { "type": "Point", "coordinates": [ -84.180361558420799, 9.93320379719048 ] } },
{ "type": "Feature", "properties": { "name": "Santa Bárbara", "province": "Heredia", "canton": "Santa Bárbara", "district": "Santa Bárbara", "postal_code": 40401, "address": "de la iglesia, 50 m al oeste y 200 m al sur. Diagonal al salón comunal" }, "geometry": { "type": "Point", "coordinates": [ -84.158197360121093, 10.0353607230841 ] } },
{ "type": "Feature", "properties": { "name": "Santa Cruz", "province": "Guanacaste", "canton": "Santa Cruz", "district": "Santa Cruz", "postal_code": 50301, "address": "de la terminal de buses de Santa Cruz, 300 m al este" }, "geometry": { "type": "Point", "coordinates": [ -85.580920582014897, 10.263571755055899 ] } },
{ "type": "Feature", "properties": { "name": "Santo Domingo", "province": "Heredia", "canton": "Santo Domingo", "district": "Santo Domingo", "postal_code": 40301, "address": "al costado sur de la plaza de deportes" }, "geometry": { "type": "Point", "coordinates": [ -84.0882273101045, 9.98121056273242 ] } },
{ "type": "Feature", "properties": { "name": "Sarchí", "province": "Alajuela", "canton": "Valverde Vega", "district": "Sarchí", "postal_code": 21201, "address": "del estadio municipal, 50 m al sur en el campo ferial " }, "geometry": { "type": "Point", "coordinates": [ -84.3455173779098, 10.094544990981399 ] } },
{ "type": "Feature", "properties": { "name": "Siquirres", "province": "Limón", "canton": "Siquirres", "district": "Siquirres", "postal_code": 70301, "address": "del gimnasio municipal, 50 m al norte, contiguo a CECUDI " }, "geometry": { "type": "Point", "coordinates": [ -83.497281975689503, 10.0941991550525 ] } },
{ "type": "Feature", "properties": { "name": "Tabarcia", "province": "San José", "canton": "Mora", "district": "Tabarcia", "postal_code": 10703, "address": "en las instalaciones del Centro Agrícola" }, "geometry": { "type": "Point", "coordinates": [ -84.232418249781503, 9.848234710571729 ] } },
{ "type": "Feature", "properties": { "name": "Tarrazú", "province": "San José", "canton": "Tarrazú", "district": "San Marcos", "postal_code": 10501, "address": "en la plazoleta del parque de San Marcos de Tarrazú " }, "geometry": { "type": "Point", "coordinates": [ -84.0221416, 9.66038379036069 ] } },
{ "type": "Feature", "properties": { "name": "Tejar de El Guarco", "province": "Cartago", "canton": "El Guarco", "district": "El Tejar", "postal_code": 30801, "address": "diagonal a la Guardia Rural" }, "geometry": { "type": "Point", "coordinates": [ -83.940268333811005, 9.847219952503419 ] } },
{ "type": "Feature", "properties": { "name": "Tibás", "province": "San José", "canton": "Tibás", "district": "San Juan", "postal_code": 11301, "address": "al costado sur del estadio Ricardo Saprissa Aymá " }, "geometry": { "type": "Point", "coordinates": [ -84.075320363371901, 9.96477161225442 ] } },
{ "type": "Feature", "properties": { "name": "Tilarán", "province": "Guanacaste", "canton": "Tilarán", "district": "Tilarán", "postal_code": 50801, "address": "en el parqueo de la Municipalidad de Tilarán" }, "geometry": { "type": "Point", "coordinates": [ -84.969350046904296, 10.4712723876938 ] } },
{ "type": "Feature", "properties": { "name": "Tres Ríos", "province": "Cartago", "canton": "La Unión", "district": "Tres Ríos", "postal_code": 30301, "address": "al costado oeste de la Biblioteca Pública. Al costado este de Correos de Costa Rica " }, "geometry": { "type": "Point", "coordinates": [ -83.984475354803294, 9.90698150773393 ] } },
{ "type": "Feature", "properties": { "name": "Turrialba", "province": "Cartago", "canton": "Turrialba", "district": "Turrialba", "postal_code": 30501, "address": "en la Antigua Estación del Atlántico " }, "geometry": { "type": "Point", "coordinates": [ -83.682880105265596, 9.90413940130072 ] } },
{ "type": "Feature", "properties": { "name": "Turrúcares", "province": "Alajuela", "canton": "Alajuela", "district": "Turrúcares", "postal_code": 20111, "address": "al costado oeste de la plaza de deportes " }, "geometry": { "type": "Point", "coordinates": [ -84.318686731524394, 9.959215167555829 ] } },
{ "type": "Feature", "properties": { "name": "Vargas Araya", "province": "San José", "canton": "Montes de Oca", "district": "San Pedro", "postal_code": 11501, "address": "al costado este del salón comunal " }, "geometry": { "type": "Point", "coordinates": [ -84.037086851519604, 9.93627896982761 ] } },
{ "type": "Feature", "properties": { "name": "Villas de Ayarco", "province": "Cartago", "canton": "La Unión", "district": "Tres Ríos", "postal_code": 30301, "address": "al frente a la escuela de Lomas de Ayarco" }, "geometry": { "type": "Point", "coordinates": [ -84.013107452556994, 9.901300139844629 ] } },
{ "type": "Feature", "properties": { "name": "Zapote", "province": "San José", "canton": "San José", "district": "Zapote", "postal_code": 10105, "address": "campo ferial de Zapote, junto al redondel de toros" }, "geometry": { "type": "Point", "coordinates": [ -84.051530906393097, 9.91888373623603 ] } }
]
}
